{
"type": "FeatureCollection",
"name": "Alumendavillages",
"crs": { "type": "name", "properties": { "name": "urn:ogc:def:crs:OGC:1.3:CRS84" } },
"features": [
{ "type": "Feature", "properties": { "OBJECTID": 1, "NAME": "Bapton", "UNIT": "Vil", "VILCODE": 31001008020.0, "EACODE": 31001008.0, "TACODE": 31001.0, "DISTCODE": 310.0, "TANAME": "TA Ngabu", "DISTRICT": "Chikwawa", "UTMEAST": 693022.90625, "UTMNORTH": 8192023.0, "X_COORD": 34.80681, "Y_COORD": -16.32681 }, "geometry": { "type": "Point", "coordinates": [ 34.807248882965695, -16.348126349597923 ] } },
{ "type": "Feature", "properties": { "OBJECTID": 2, "NAME": "Chaluma", "UNIT": "Vil", "VILCODE": 31001008362.0, "EACODE": 31001008.0, "TACODE": 31001.0, "DISTCODE": 310.0, "TANAME": "TA Ngabu", "DISTRICT": "Chikwawa", "UTMEAST": 693022.90625, "UTMNORTH": 8192023.0, "X_COORD": 34.80681, "Y_COORD": -16.32681 }, "geometry": { "type": "Point", "coordinates": [ 34.807248882965695, -16.348126349597923 ] } },
{ "type": "Feature", "properties": { "OBJECTID": 3, "NAME": "Joe", "UNIT": "Vil", "VILCODE": 31001008363.0, "EACODE": 31001008.0, "TACODE": 31001.0, "DISTCODE": 310.0, "TANAME": "TA Ngabu", "DISTRICT": "Chikwawa", "UTMEAST": 693022.90625, "UTMNORTH": 8192023.0, "X_COORD": 34.80681, "Y_COORD": -16.32681 }, "geometry": { "type": "Point", "coordinates": [ 34.807248882965695, -16.348126349597923 ] } },
{ "type": "Feature", "properties": { "OBJECTID": 4, "NAME": "Mponya", "UNIT": "Vil", "VILCODE": 31001009167.0, "EACODE": 31001009.0, "TACODE": 31001.0, "DISTCODE": 310.0, "TANAME": "TA Ngabu", "DISTRICT": "Chikwawa", "UTMEAST": 695719.5, "UTMNORTH": 8194513.0, "X_COORD": 34.83183, "Y_COORD": -16.3041 }, "geometry": { "type": "Point", "coordinates": [ 34.83227435696633, -16.325410147160358 ] } },
{ "type": "Feature", "properties": { "OBJECTID": 5, "NAME": "Tsamba", "UNIT": "Vil", "VILCODE": 31001009022.0, "EACODE": 31001009.0, "TACODE": 31001.0, "DISTCODE": 310.0, "TANAME": "TA Ngabu", "DISTRICT": "Chikwawa", "UTMEAST": 695719.5, "UTMNORTH": 8194513.0, "X_COORD": 34.83183, "Y_COORD": -16.3041 }, "geometry": { "type": "Point", "coordinates": [ 34.83227435696633, -16.325410147160358 ] } },
{ "type": "Feature", "properties": { "OBJECTID": 6, "NAME": "Mtone", "UNIT": "Vil", "VILCODE": 31001009023.0, "EACODE": 31001009.0, "TACODE": 31001.0, "DISTCODE": 310.0, "TANAME": "TA Ngabu", "DISTRICT": "Chikwawa", "UTMEAST": 695719.5, "UTMNORTH": 8194513.0, "X_COORD": 34.83183, "Y_COORD": -16.3041 }, "geometry": { "type": "Point", "coordinates": [ 34.83227435696633, -16.325410147160358 ] } },
{ "type": "Feature", "properties": { "OBJECTID": 7, "NAME": "Paiva", "UNIT": "Vil", "VILCODE": 31001010026.000004, "EACODE": 31001010.0, "TACODE": 31001.0, "DISTCODE": 310.0, "TANAME": "TA Ngabu", "DISTRICT": "Chikwawa", "UTMEAST": 697401.78125, "UTMNORTH": 8191684.25, "X_COORD": 34.84781, "Y_COORD": -16.32952 }, "geometry": { "type": "Point", "coordinates": [ 34.848255650288081, -16.350831740496801 ] } },
{ "type": "Feature", "properties": { "OBJECTID": 8, "NAME": "Meja", "UNIT": "Vil", "VILCODE": 31001010025.0, "EACODE": 31001010.0, "TACODE": 31001.0, "DISTCODE": 310.0, "TANAME": "TA Ngabu", "DISTRICT": "Chikwawa", "UTMEAST": 697401.78125, "UTMNORTH": 8191684.25, "X_COORD": 34.84781, "Y_COORD": -16.32952 }, "geometry": { "type": "Point", "coordinates": [ 34.848255650288081, -16.350831740496801 ] } },
{ "type": "Feature", "properties": { "OBJECTID": 9, "NAME": "Jomba", "UNIT": "Vil", "VILCODE": 31001011028.000004, "EACODE": 31001011.0, "TACODE": 31001.0, "DISTCODE": 310.0, "TANAME": "TA Ngabu", "DISTRICT": "Chikwawa", "UTMEAST": 698905.1875, "UTMNORTH": 8191883.25, "X_COORD": 34.86186, "Y_COORD": -16.3276 }, "geometry": { "type": "Point", "coordinates": [ 34.862307624175152, -16.34890985490712 ] } },
{ "type": "Feature", "properties": { "OBJECTID": 10, "NAME": "Kudziwa", "UNIT": "Vil", "VILCODE": 31001012029.0, "EACODE": 31001012.0, "TACODE": 31001.0, "DISTCODE": 310.0, "TANAME": "TA Ngabu", "DISTRICT": "Chikwawa", "UTMEAST": 698813.90625, "UTMNORTH": 8194862.25, "X_COORD": 34.86075, "Y_COORD": -16.30069 }, "geometry": { "type": "Point", "coordinates": [ 34.861198647255662, -16.322001177742141 ] } },
{ "type": "Feature", "properties": { "OBJECTID": 11, "NAME": "Laiton", "UNIT": "Vil", "VILCODE": 31001012030.000004, "EACODE": 31001012.0, "TACODE": 31001.0, "DISTCODE": 310.0, "TANAME": "TA Ngabu", "DISTRICT": "Chikwawa", "UTMEAST": 698813.90625, "UTMNORTH": 8194862.25, "X_COORD": 34.86075, "Y_COORD": -16.30069 }, "geometry": { "type": "Point", "coordinates": [ 34.861198647255662, -16.322001177742141 ] } },
{ "type": "Feature", "properties": { "OBJECTID": 12, "NAME": "Jambo", "UNIT": "Vil", "VILCODE": 31001013013.0, "EACODE": 31001013.0, "TACODE": 31001.0, "DISTCODE": 310.0, "TANAME": "TA Ngabu", "DISTRICT": "Chikwawa", "UTMEAST": 700025.40625, "UTMNORTH": 8194480.75, "X_COORD": 34.87212, "Y_COORD": -16.30404 }, "geometry": { "type": "Point", "coordinates": [ 34.872567041239321, -16.325347873163079 ] } },
{ "type": "Feature", "properties": { "OBJECTID": 13, "NAME": "Laiton", "UNIT": "Vil", "VILCODE": 31001013030.0, "EACODE": 31001013.0, "TACODE": 31001.0, "DISTCODE": 310.0, "TANAME": "TA Ngabu", "DISTRICT": "Chikwawa", "UTMEAST": 700025.40625, "UTMNORTH": 8194480.75, "X_COORD": 34.87212, "Y_COORD": -16.30404 }, "geometry": { "type": "Point", "coordinates": [ 34.872567041239321, -16.325347873163079 ] } },
{ "type": "Feature", "properties": { "OBJECTID": 14, "NAME": "Kamando", "UNIT": "Vil", "VILCODE": 31001013032.000004, "EACODE": 31001013.0, "TACODE": 31001.0, "DISTCODE": 310.0, "TANAME": "TA Ngabu", "DISTRICT": "Chikwawa", "UTMEAST": 700025.40625, "UTMNORTH": 8194480.75, "X_COORD": 34.87212, "Y_COORD": -16.30404 }, "geometry": { "type": "Point", "coordinates": [ 34.872567041239321, -16.325347873163079 ] } },
{ "type": "Feature", "properties": { "OBJECTID": 15, "NAME": "Waya Nkhazi", "UNIT": "Vil", "VILCODE": 31001015036.000004, "EACODE": 31001015.0, "TACODE": 31001.0, "DISTCODE": 310.0, "TANAME": "TA Ngabu", "DISTRICT": "Chikwawa", "UTMEAST": 702429.1875, "UTMNORTH": 8197696.25, "X_COORD": 34.89433, "Y_COORD": -16.27478 }, "geometry": { "type": "Point", "coordinates": [ 34.89477905860975, -16.296094512009489 ] } },
{ "type": "Feature", "properties": { "OBJECTID": 16, "NAME": "Nkwazi", "UNIT": "Vil", "VILCODE": 31001016037.0, "EACODE": 31001016.0, "TACODE": 31001.0, "DISTCODE": 310.0, "TANAME": "TA Ngabu", "DISTRICT": "Chikwawa", "UTMEAST": 704766.6875, "UTMNORTH": 8197970.5, "X_COORD": 34.91617, "Y_COORD": -16.27211 }, "geometry": { "type": "Point", "coordinates": [ 34.916622796725186, -16.293419479585207 ] } },
{ "type": "Feature", "properties": { "OBJECTID": 17, "NAME": "Chigweshe", "UNIT": "Vil", "VILCODE": 31001016038.000004, "EACODE": 31001016.0, "TACODE": 31001.0, "DISTCODE": 310.0, "TANAME": "TA Ngabu", "DISTRICT": "Chikwawa", "UTMEAST": 704766.6875, "UTMNORTH": 8197970.5, "X_COORD": 34.91617, "Y_COORD": -16.27211 }, "geometry": { "type": "Point", "coordinates": [ 34.916622796725186, -16.293419479585207 ] } },
{ "type": "Feature", "properties": { "OBJECTID": 18, "NAME": "Nzangaya", "UNIT": "Vil", "VILCODE": 31001017374.0, "EACODE": 31001017.0, "TACODE": 31001.0, "DISTCODE": 310.0, "TANAME": "TA Ngabu", "DISTRICT": "Chikwawa", "UTMEAST": 704165.75, "UTMNORTH": 8194628.25, "X_COORD": 34.91084, "Y_COORD": -16.30236 }, "geometry": { "type": "Point", "coordinates": [ 34.911293967933702, -16.323667887058793 ] } },
{ "type": "Feature", "properties": { "OBJECTID": 19, "NAME": "Mpoza", "UNIT": "Vil", "VILCODE": 31001017042.0, "EACODE": 31001017.0, "TACODE": 31001.0, "DISTCODE": 310.0, "TANAME": "TA Ngabu", "DISTRICT": "Chikwawa", "UTMEAST": 704165.75, "UTMNORTH": 8194628.25, "X_COORD": 34.91084, "Y_COORD": -16.30236 }, "geometry": { "type": "Point", "coordinates": [ 34.911293967933702, -16.323667887058793 ] } },
{ "type": "Feature", "properties": { "OBJECTID": 20, "NAME": "Chikafa", "UNIT": "Vil", "VILCODE": 31001017375.0, "EACODE": 31001017.0, "TACODE": 31001.0, "DISTCODE": 310.0, "TANAME": "TA Ngabu", "DISTRICT": "Chikwawa", "UTMEAST": 704165.75, "UTMNORTH": 8194628.25, "X_COORD": 34.91084, "Y_COORD": -16.30236 }, "geometry": { "type": "Point", "coordinates": [ 34.911293967933702, -16.323667887058793 ] } },
{ "type": "Feature", "properties": { "OBJECTID": 21, "NAME": "Sala Beni", "UNIT": "Vil", "VILCODE": 31001017044.0, "EACODE": 31001017.0, "TACODE": 31001.0, "DISTCODE": 310.0, "TANAME": "TA Ngabu", "DISTRICT": "Chikwawa", "UTMEAST": 704165.75, "UTMNORTH": 8194628.25, "X_COORD": 34.91084, "Y_COORD": -16.30236 }, "geometry": { "type": "Point", "coordinates": [ 34.911293967933702, -16.323667887058793 ] } },
{ "type": "Feature", "properties": { "OBJECTID": 22, "NAME": "Sala Beni", "UNIT": "Vil", "VILCODE": 31001018044.0, "EACODE": 31001018.0, "TACODE": 31001.0, "DISTCODE": 310.0, "TANAME": "TA Ngabu", "DISTRICT": "Chikwawa", "UTMEAST": 705338.03125, "UTMNORTH": 8190054.75, "X_COORD": 34.92221, "Y_COORD": -16.34358 }, "geometry": { "type": "Point", "coordinates": [ 34.922666588665457, -16.364889813113404 ] } },
{ "type": "Feature", "properties": { "OBJECTID": 23, "NAME": "Mwana Kakula", "UNIT": "Vil", "VILCODE": 31001019047.0, "EACODE": 31001019.0, "TACODE": 31001.0, "DISTCODE": 310.0, "TANAME": "TA Ngabu", "DISTRICT": "Chikwawa", "UTMEAST": 708755.8125, "UTMNORTH": 8186543.75, "X_COORD": 34.95451, "Y_COORD": -16.37501 }, "geometry": { "type": "Point", "coordinates": [ 34.954967493984682, -16.396316487162775 ] } },
{ "type": "Feature", "properties": { "OBJECTID": 24, "NAME": "Kamago", "UNIT": "Vil", "VILCODE": 31001019048.0, "EACODE": 31001019.0, "TACODE": 31001.0, "DISTCODE": 310.0, "TANAME": "TA Ngabu", "DISTRICT": "Chikwawa", "UTMEAST": 708755.8125, "UTMNORTH": 8186543.75, "X_COORD": 34.95451, "Y_COORD": -16.37501 }, "geometry": { "type": "Point", "coordinates": [ 34.954967493984682, -16.396316487162775 ] } },
{ "type": "Feature", "properties": { "OBJECTID": 25, "NAME": "Kumwembe", "UNIT": "Vil", "VILCODE": 31001019049.0, "EACODE": 31001019.0, "TACODE": 31001.0, "DISTCODE": 310.0, "TANAME": "TA Ngabu", "DISTRICT": "Chikwawa", "UTMEAST": 708755.8125, "UTMNORTH": 8186543.75, "X_COORD": 34.95451, "Y_COORD": -16.37501 }, "geometry": { "type": "Point", "coordinates": [ 34.954967493984682, -16.396316487162775 ] } },
{ "type": "Feature", "properties": { "OBJECTID": 26, "NAME": "Chindoko", "UNIT": "Vil", "VILCODE": 31001019051.000004, "EACODE": 31001019.0, "TACODE": 31001.0, "DISTCODE": 310.0, "TANAME": "TA Ngabu", "DISTRICT": "Chikwawa", "UTMEAST": 708755.8125, "UTMNORTH": 8186543.75, "X_COORD": 34.95451, "Y_COORD": -16.37501 }, "geometry": { "type": "Point", "coordinates": [ 34.954967493984682, -16.396316487162775 ] } },
{ "type": "Feature", "properties": { "OBJECTID": 27, "NAME": "Msomo", "UNIT": "Vil", "VILCODE": 31001020056.0, "EACODE": 31001020.0, "TACODE": 31001.0, "DISTCODE": 310.0, "TANAME": "TA Ngabu", "DISTRICT": "Chikwawa", "UTMEAST": 704853.09375, "UTMNORTH": 8185724.0, "X_COORD": 34.91806, "Y_COORD": -16.38275 }, "geometry": { "type": "Point", "coordinates": [ 34.918511263596692, -16.404059446987493 ] } },
{ "type": "Feature", "properties": { "OBJECTID": 28, "NAME": "Mathontho", "UNIT": "Vil", "VILCODE": 31001020053.000004, "EACODE": 31001020.0, "TACODE": 31001.0, "DISTCODE": 310.0, "TANAME": "TA Ngabu", "DISTRICT": "Chikwawa", "UTMEAST": 704853.09375, "UTMNORTH": 8185724.0, "X_COORD": 34.91806, "Y_COORD": -16.38275 }, "geometry": { "type": "Point", "coordinates": [ 34.918511263596692, -16.404059446987493 ] } },
{ "type": "Feature", "properties": { "OBJECTID": 29, "NAME": "Zamumtima", "UNIT": "Vil", "VILCODE": 31001020052.0, "EACODE": 31001020.0, "TACODE": 31001.0, "DISTCODE": 310.0, "TANAME": "TA Ngabu", "DISTRICT": "Chikwawa", "UTMEAST": 704853.09375, "UTMNORTH": 8185724.0, "X_COORD": 34.91806, "Y_COORD": -16.38275 }, "geometry": { "type": "Point", "coordinates": [ 34.918511263596692, -16.404059446987493 ] } },
{ "type": "Feature", "properties": { "OBJECTID": 30, "NAME": "Mpinganjira", "UNIT": "Vil", "VILCODE": 31001021054.0, "EACODE": 31001021.0, "TACODE": 31001.0, "DISTCODE": 310.0, "TANAME": "TA Ngabu", "DISTRICT": "Chikwawa", "UTMEAST": 702054.9375, "UTMNORTH": 8185202.0, "X_COORD": 34.89191, "Y_COORD": -16.3877 }, "geometry": { "type": "Point", "coordinates": [ 34.892365075344692, -16.409013274938584 ] } },
{ "type": "Feature", "properties": { "OBJECTID": 31, "NAME": "Malikopo", "UNIT": "Vil", "VILCODE": 31001021057.0, "EACODE": 31001021.0, "TACODE": 31001.0, "DISTCODE": 310.0, "TANAME": "TA Ngabu", "DISTRICT": "Chikwawa", "UTMEAST": 702054.9375, "UTMNORTH": 8185202.0, "X_COORD": 34.89191, "Y_COORD": -16.3877 }, "geometry": { "type": "Point", "coordinates": [ 34.892365075344692, -16.409013274938584 ] } },
{ "type": "Feature", "properties": { "OBJECTID": 32, "NAME": "Jossi", "UNIT": "Vil", "VILCODE": 31001021187.000004, "EACODE": 31001021.0, "TACODE": 31001.0, "DISTCODE": 310.0, "TANAME": "TA Ngabu", "DISTRICT": "Chikwawa", "UTMEAST": 702054.9375, "UTMNORTH": 8185202.0, "X_COORD": 34.89191, "Y_COORD": -16.3877 }, "geometry": { "type": "Point", "coordinates": [ 34.892365075344692, -16.409013274938584 ] } },
{ "type": "Feature", "properties": { "OBJECTID": 33, "NAME": "Tchuzi", "UNIT": "Vil", "VILCODE": 31001021367.0, "EACODE": 31001021.0, "TACODE": 31001.0, "DISTCODE": 310.0, "TANAME": "TA Ngabu", "DISTRICT": "Chikwawa", "UTMEAST": 702054.9375, "UTMNORTH": 8185202.0, "X_COORD": 34.89191, "Y_COORD": -16.3877 }, "geometry": { "type": "Point", "coordinates": [ 34.892365075344692, -16.409013274938584 ] } },
{ "type": "Feature", "properties": { "OBJECTID": 34, "NAME": "Malikopo", "UNIT": "Vil", "VILCODE": 31001022056.0, "EACODE": 31001022.0, "TACODE": 31001.0, "DISTCODE": 310.0, "TANAME": "TA Ngabu", "DISTRICT": "Chikwawa", "UTMEAST": 701877.28125, "UTMNORTH": 8189025.25, "X_COORD": 34.88992, "Y_COORD": -16.35317 }, "geometry": { "type": "Point", "coordinates": [ 34.890368782256445, -16.374484720610056 ] } },
{ "type": "Feature", "properties": { "OBJECTID": 35, "NAME": "Mgujura", "UNIT": "Vil", "VILCODE": 31001023060.000004, "EACODE": 31001023.0, "TACODE": 31001.0, "DISTCODE": 310.0, "TANAME": "TA Ngabu", "DISTRICT": "Chikwawa", "UTMEAST": 697997.9375, "UTMNORTH": 8188360.75, "X_COORD": 34.85367, "Y_COORD": -16.3595 }, "geometry": { "type": "Point", "coordinates": [ 34.854118217275044, -16.380811668190187 ] } },
{ "type": "Feature", "properties": { "OBJECTID": 36, "NAME": "Goma", "UNIT": "Vil", "VILCODE": 31001024062.000004, "EACODE": 31001024.0, "TACODE": 31001.0, "DISTCODE": 310.0, "TANAME": "TA Ngabu", "DISTRICT": "Chikwawa", "UTMEAST": 699756.5, "UTMNORTH": 8185446.25, "X_COORD": 34.87038, "Y_COORD": -16.38569 }, "geometry": { "type": "Point", "coordinates": [ 34.870828911541871, -16.406999135212452 ] } },
{ "type": "Feature", "properties": { "OBJECTID": 37, "NAME": "Miseu", "UNIT": "Vil", "VILCODE": 31001024001.0, "EACODE": 31001024.0, "TACODE": 31001.0, "DISTCODE": 310.0, "TANAME": "TA Ngabu", "DISTRICT": "Chikwawa", "UTMEAST": 699756.5, "UTMNORTH": 8185446.25, "X_COORD": 34.87038, "Y_COORD": -16.38569 }, "geometry": { "type": "Point", "coordinates": [ 34.870828911541871, -16.406999135212452 ] } },
{ "type": "Feature", "properties": { "OBJECTID": 38, "NAME": "Mpheza", "UNIT": "Vil", "VILCODE": 31001024062.999996, "EACODE": 31001024.0, "TACODE": 31001.0, "DISTCODE": 310.0, "TANAME": "TA Ngabu", "DISTRICT": "Chikwawa", "UTMEAST": 699756.5, "UTMNORTH": 8185446.25, "X_COORD": 34.87038, "Y_COORD": -16.38569 }, "geometry": { "type": "Point", "coordinates": [ 34.870828911541871, -16.406999135212452 ] } },
{ "type": "Feature", "properties": { "OBJECTID": 39, "NAME": "Paiva", "UNIT": "Vil", "VILCODE": 31001025026.0, "EACODE": 31001025.0, "TACODE": 31001.0, "DISTCODE": 310.0, "TANAME": "TA Ngabu", "DISTRICT": "Chikwawa", "UTMEAST": 697720.875, "UTMNORTH": 8185876.75, "X_COORD": 34.85129, "Y_COORD": -16.38197 }, "geometry": { "type": "Point", "coordinates": [ 34.851737142805902, -16.403278247238408 ] } },
{ "type": "Feature", "properties": { "OBJECTID": 40, "NAME": "Jauma", "UNIT": "Vil", "VILCODE": 31001025066.0, "EACODE": 31001025.0, "TACODE": 31001.0, "DISTCODE": 310.0, "TANAME": "TA Ngabu", "DISTRICT": "Chikwawa", "UTMEAST": 697720.875, "UTMNORTH": 8185876.75, "X_COORD": 34.85129, "Y_COORD": -16.38197 }, "geometry": { "type": "Point", "coordinates": [ 34.851737142805902, -16.403278247238408 ] } },
{ "type": "Feature", "properties": { "OBJECTID": 41, "NAME": "Mailosi", "UNIT": "Vil", "VILCODE": 31001025067.0, "EACODE": 31001025.0, "TACODE": 31001.0, "DISTCODE": 310.0, "TANAME": "TA Ngabu", "DISTRICT": "Chikwawa", "UTMEAST": 697720.875, "UTMNORTH": 8185876.75, "X_COORD": 34.85129, "Y_COORD": -16.38197 }, "geometry": { "type": "Point", "coordinates": [ 34.851737142805902, -16.403278247238408 ] } },
{ "type": "Feature", "properties": { "OBJECTID": 42, "NAME": "Lobati", "UNIT": "Vil", "VILCODE": 31001025068.0, "EACODE": 31001025.0, "TACODE": 31001.0, "DISTCODE": 310.0, "TANAME": "TA Ngabu", "DISTRICT": "Chikwawa", "UTMEAST": 697720.875, "UTMNORTH": 8185876.75, "X_COORD": 34.85129, "Y_COORD": -16.38197 }, "geometry": { "type": "Point", "coordinates": [ 34.851737142805902, -16.403278247238408 ] } },
{ "type": "Feature", "properties": { "OBJECTID": 43, "NAME": "Khundu", "UNIT": "Vil", "VILCODE": 31001026075.0, "EACODE": 31001026.0, "TACODE": 31001.0, "DISTCODE": 310.0, "TANAME": "TA Ngabu", "DISTRICT": "Chikwawa", "UTMEAST": 695288.15625, "UTMNORTH": 8185120.5, "X_COORD": 34.82858, "Y_COORD": -16.389 }, "geometry": { "type": "Point", "coordinates": [ 34.829029080099758, -16.410310718287406 ] } },
{ "type": "Feature", "properties": { "OBJECTID": 44, "NAME": "Chiutale", "UNIT": "Vil", "VILCODE": 31001026069.0, "EACODE": 31001026.0, "TACODE": 31001.0, "DISTCODE": 310.0, "TANAME": "TA Ngabu", "DISTRICT": "Chikwawa", "UTMEAST": 695288.15625, "UTMNORTH": 8185120.5, "X_COORD": 34.82858, "Y_COORD": -16.389 }, "geometry": { "type": "Point", "coordinates": [ 34.829029080099758, -16.410310718287406 ] } },
{ "type": "Feature", "properties": { "OBJECTID": 45, "NAME": "Thumbi", "UNIT": "Vil", "VILCODE": 31001026070.0, "EACODE": 31001026.0, "TACODE": 31001.0, "DISTCODE": 310.0, "TANAME": "TA Ngabu", "DISTRICT": "Chikwawa", "UTMEAST": 695288.15625, "UTMNORTH": 8185120.5, "X_COORD": 34.82858, "Y_COORD": -16.389 }, "geometry": { "type": "Point", "coordinates": [ 34.829029080099758, -16.410310718287406 ] } },
{ "type": "Feature", "properties": { "OBJECTID": 46, "NAME": "Mpheza", "UNIT": "Vil", "VILCODE": 31001026071.0, "EACODE": 31001026.0, "TACODE": 31001.0, "DISTCODE": 310.0, "TANAME": "TA Ngabu", "DISTRICT": "Chikwawa", "UTMEAST": 695288.15625, "UTMNORTH": 8185120.5, "X_COORD": 34.82858, "Y_COORD": -16.389 }, "geometry": { "type": "Point", "coordinates": [ 34.829029080099758, -16.410310718287406 ] } },
{ "type": "Feature", "properties": { "OBJECTID": 47, "NAME": "Ntembeta", "UNIT": "Vil", "VILCODE": 31001027004.0, "EACODE": 31001027.0, "TACODE": 31001.0, "DISTCODE": 310.0, "TANAME": "TA Ngabu", "DISTRICT": "Chikwawa", "UTMEAST": 693384.25, "UTMNORTH": 8188216.0, "X_COORD": 34.81051, "Y_COORD": -16.36118 }, "geometry": { "type": "Point", "coordinates": [ 34.810947770581421, -16.382495678765288 ] } },
{ "type": "Feature", "properties": { "OBJECTID": 48, "NAME": "Gonya", "UNIT": "Vil", "VILCODE": 31001027075.999996, "EACODE": 31001027.0, "TACODE": 31001.0, "DISTCODE": 310.0, "TANAME": "TA Ngabu", "DISTRICT": "Chikwawa", "UTMEAST": 693384.25, "UTMNORTH": 8188216.0, "X_COORD": 34.81051, "Y_COORD": -16.36118 }, "geometry": { "type": "Point", "coordinates": [ 34.810947770581421, -16.382495678765288 ] } },
{ "type": "Feature", "properties": { "OBJECTID": 49, "NAME": "Chabisala", "UNIT": "Vil", "VILCODE": 31001027077.0, "EACODE": 31001027.0, "TACODE": 31001.0, "DISTCODE": 310.0, "TANAME": "TA Ngabu", "DISTRICT": "Chikwawa", "UTMEAST": 693384.25, "UTMNORTH": 8188216.0, "X_COORD": 34.81051, "Y_COORD": -16.36118 }, "geometry": { "type": "Point", "coordinates": [ 34.810947770581421, -16.382495678765288 ] } },
{ "type": "Feature", "properties": { "OBJECTID": 50, "NAME": "Chokankunene", "UNIT": "Vil", "VILCODE": 31001028079.0, "EACODE": 31001028.0, "TACODE": 31001.0, "DISTCODE": 310.0, "TANAME": "TA Ngabu", "DISTRICT": "Chikwawa", "UTMEAST": 691468.40625, "UTMNORTH": 8186086.75, "X_COORD": 34.79275, "Y_COORD": -16.38058 }, "geometry": { "type": "Point", "coordinates": [ 34.793191753188189, -16.401888364088453 ] } },
{ "type": "Feature", "properties": { "OBJECTID": 51, "NAME": "Mphungu", "UNIT": "Vil", "VILCODE": 31001028080.0, "EACODE": 31001028.0, "TACODE": 31001.0, "DISTCODE": 310.0, "TANAME": "TA Ngabu", "DISTRICT": "Chikwawa", "UTMEAST": 691468.40625, "UTMNORTH": 8186086.75, "X_COORD": 34.79275, "Y_COORD": -16.38058 }, "geometry": { "type": "Point", "coordinates": [ 34.793191753188189, -16.401888364088453 ] } },
{ "type": "Feature", "properties": { "OBJECTID": 52, "NAME": "Ndaluza", "UNIT": "Vil", "VILCODE": 31001028362.000004, "EACODE": 31001028.0, "TACODE": 31001.0, "DISTCODE": 310.0, "TANAME": "TA Ngabu", "DISTRICT": "Chikwawa", "UTMEAST": 691468.40625, "UTMNORTH": 8186086.75, "X_COORD": 34.79275, "Y_COORD": -16.38058 }, "geometry": { "type": "Point", "coordinates": [ 34.793191753188189, -16.401888364088453 ] } },
{ "type": "Feature", "properties": { "OBJECTID": 53, "NAME": "James", "UNIT": "Vil", "VILCODE": 31001028258.0, "EACODE": 31001028.0, "TACODE": 31001.0, "DISTCODE": 310.0, "TANAME": "TA Ngabu", "DISTRICT": "Chikwawa", "UTMEAST": 691468.40625, "UTMNORTH": 8186086.75, "X_COORD": 34.79275, "Y_COORD": -16.38058 }, "geometry": { "type": "Point", "coordinates": [ 34.793191753188189, -16.401888364088453 ] } },
{ "type": "Feature", "properties": { "OBJECTID": 54, "NAME": "Bulayitoni", "UNIT": "Vil", "VILCODE": 31001038116.0, "EACODE": 31001038.0, "TACODE": 31001.0, "DISTCODE": 310.0, "TANAME": "TA Ngabu", "DISTRICT": "Chikwawa", "UTMEAST": 689979.84375, "UTMNORTH": 8184088.25, "X_COORD": 34.77898, "Y_COORD": -16.39875 }, "geometry": { "type": "Point", "coordinates": [ 34.779421661138883, -16.420064582649982 ] } },
{ "type": "Feature", "properties": { "OBJECTID": 55, "NAME": "Kachipapa", "UNIT": "Vil", "VILCODE": 31001038114.0, "EACODE": 31001038.0, "TACODE": 31001.0, "DISTCODE": 310.0, "TANAME": "TA Ngabu", "DISTRICT": "Chikwawa", "UTMEAST": 689979.84375, "UTMNORTH": 8184088.25, "X_COORD": 34.77898, "Y_COORD": -16.39875 }, "geometry": { "type": "Point", "coordinates": [ 34.779421661138883, -16.420064582649982 ] } },
{ "type": "Feature", "properties": { "OBJECTID": 56, "NAME": "Fuleti", "UNIT": "Vil", "VILCODE": 31001038021.0, "EACODE": 31001038.0, "TACODE": 31001.0, "DISTCODE": 310.0, "TANAME": "TA Ngabu", "DISTRICT": "Chikwawa", "UTMEAST": 689979.84375, "UTMNORTH": 8184088.25, "X_COORD": 34.77898, "Y_COORD": -16.39875 }, "geometry": { "type": "Point", "coordinates": [ 34.779421661138883, -16.420064582649982 ] } },
{ "type": "Feature", "properties": { "OBJECTID": 57, "NAME": "Billey", "UNIT": "Vil", "VILCODE": 31001048158.0, "EACODE": 31001048.0, "TACODE": 31001.0, "DISTCODE": 310.0, "TANAME": "TA Ngabu", "DISTRICT": "Chikwawa", "UTMEAST": 698725.59375, "UTMNORTH": 8183717.5, "X_COORD": 34.86088, "Y_COORD": -16.40139 }, "geometry": { "type": "Point", "coordinates": [ 34.861327484281787, -16.422704538513159 ] } },
{ "type": "Feature", "properties": { "OBJECTID": 58, "NAME": "Mozyet", "UNIT": "Vil", "VILCODE": 31001048199.999996, "EACODE": 31001048.0, "TACODE": 31001.0, "DISTCODE": 310.0, "TANAME": "TA Ngabu", "DISTRICT": "Chikwawa", "UTMEAST": 698725.59375, "UTMNORTH": 8183717.5, "X_COORD": 34.86088, "Y_COORD": -16.40139 }, "geometry": { "type": "Point", "coordinates": [ 34.861327484281787, -16.422704538513159 ] } },
{ "type": "Feature", "properties": { "OBJECTID": 59, "NAME": "Chimbembe", "UNIT": "Vil", "VILCODE": 31001048161.0, "EACODE": 31001048.0, "TACODE": 31001.0, "DISTCODE": 310.0, "TANAME": "TA Ngabu", "DISTRICT": "Chikwawa", "UTMEAST": 698725.59375, "UTMNORTH": 8183717.5, "X_COORD": 34.86088, "Y_COORD": -16.40139 }, "geometry": { "type": "Point", "coordinates": [ 34.861327484281787, -16.422704538513159 ] } },
{ "type": "Feature", "properties": { "OBJECTID": 60, "NAME": "Kulima", "UNIT": "Vil", "VILCODE": 31001049162.0, "EACODE": 31001049.0, "TACODE": 31001.0, "DISTCODE": 310.0, "TANAME": "TA Ngabu", "DISTRICT": "Chikwawa", "UTMEAST": 699082.71875, "UTMNORTH": 8181432.0, "X_COORD": 34.86442, "Y_COORD": -16.42201 }, "geometry": { "type": "Point", "coordinates": [ 34.86486776265896, -16.443324863079791 ] } },
{ "type": "Feature", "properties": { "OBJECTID": 61, "NAME": "Mwanakukula", "UNIT": "Vil", "VILCODE": 31001050047.0, "EACODE": 31001050.0, "TACODE": 31001.0, "DISTCODE": 310.0, "TANAME": "TA Ngabu", "DISTRICT": "Chikwawa", "UTMEAST": 703079.34375, "UTMNORTH": 8183749.0, "X_COORD": 34.90163, "Y_COORD": -16.40074 }, "geometry": { "type": "Point", "coordinates": [ 34.902081816082017, -16.422054590559579 ] } },
{ "type": "Feature", "properties": { "OBJECTID": 62, "NAME": "Bwemba", "UNIT": "Vil", "VILCODE": 31001050049.999996, "EACODE": 31001050.0, "TACODE": 31001.0, "DISTCODE": 310.0, "TANAME": "TA Ngabu", "DISTRICT": "Chikwawa", "UTMEAST": 703079.34375, "UTMNORTH": 8183749.0, "X_COORD": 34.90163, "Y_COORD": -16.40074 }, "geometry": { "type": "Point", "coordinates": [ 34.902081816082017, -16.422054590559579 ] } },
{ "type": "Feature", "properties": { "OBJECTID": 63, "NAME": "Chindoko", "UNIT": "Vil", "VILCODE": 31001050051.0, "EACODE": 31001050.0, "TACODE": 31001.0, "DISTCODE": 310.0, "TANAME": "TA Ngabu", "DISTRICT": "Chikwawa", "UTMEAST": 703079.34375, "UTMNORTH": 8183749.0, "X_COORD": 34.90163, "Y_COORD": -16.40074 }, "geometry": { "type": "Point", "coordinates": [ 34.902081816082017, -16.422054590559579 ] } },
{ "type": "Feature", "properties": { "OBJECTID": 64, "NAME": "Mapingo", "UNIT": "Vil", "VILCODE": 31001050166.999996, "EACODE": 31001050.0, "TACODE": 31001.0, "DISTCODE": 310.0, "TANAME": "TA Ngabu", "DISTRICT": "Chikwawa", "UTMEAST": 703079.34375, "UTMNORTH": 8183749.0, "X_COORD": 34.90163, "Y_COORD": -16.40074 }, "geometry": { "type": "Point", "coordinates": [ 34.902081816082017, -16.422054590559579 ] } },
{ "type": "Feature", "properties": { "OBJECTID": 65, "NAME": "Khokhwa", "UNIT": "Vil", "VILCODE": 31001050201.0, "EACODE": 31001050.0, "TACODE": 31001.0, "DISTCODE": 310.0, "TANAME": "TA Ngabu", "DISTRICT": "Chikwawa", "UTMEAST": 703079.34375, "UTMNORTH": 8183749.0, "X_COORD": 34.90163, "Y_COORD": -16.40074 }, "geometry": { "type": "Point", "coordinates": [ 34.902081816082017, -16.422054590559579 ] } },
{ "type": "Feature", "properties": { "OBJECTID": 66, "NAME": "Phazi", "UNIT": "Vil", "VILCODE": 31001052170.000004, "EACODE": 31001052.0, "TACODE": 31001.0, "DISTCODE": 310.0, "TANAME": "TA Ngabu", "DISTRICT": "Chikwawa", "UTMEAST": 707267.75, "UTMNORTH": 8182497.5, "X_COORD": 34.94095, "Y_COORD": -16.41169 }, "geometry": { "type": "Point", "coordinates": [ 34.941402321162052, -16.433002748755104 ] } },
{ "type": "Feature", "properties": { "OBJECTID": 67, "NAME": "Magalasi", "UNIT": "Vil", "VILCODE": 31001052170.999996, "EACODE": 31001052.0, "TACODE": 31001.0, "DISTCODE": 310.0, "TANAME": "TA Ngabu", "DISTRICT": "Chikwawa", "UTMEAST": 707267.75, "UTMNORTH": 8182497.5, "X_COORD": 34.94095, "Y_COORD": -16.41169 }, "geometry": { "type": "Point", "coordinates": [ 34.941402321162052, -16.433002748755104 ] } },
{ "type": "Feature", "properties": { "OBJECTID": 68, "NAME": "Balala", "UNIT": "Vil", "VILCODE": 31001052172.0, "EACODE": 31001052.0, "TACODE": 31001.0, "DISTCODE": 310.0, "TANAME": "TA Ngabu", "DISTRICT": "Chikwawa", "UTMEAST": 707267.75, "UTMNORTH": 8182497.5, "X_COORD": 34.94095, "Y_COORD": -16.41169 }, "geometry": { "type": "Point", "coordinates": [ 34.941402321162052, -16.433002748755104 ] } },
{ "type": "Feature", "properties": { "OBJECTID": 69, "NAME": "Malemia", "UNIT": "Vil", "VILCODE": 31001065002.0, "EACODE": 31001065.0, "TACODE": 31001.0, "DISTCODE": 310.0, "TANAME": "TA Ngabu", "DISTRICT": "Chikwawa", "UTMEAST": 701755.875, "UTMNORTH": 8181235.5, "X_COORD": 34.88946, "Y_COORD": -16.42356 }, "geometry": { "type": "Point", "coordinates": [ 34.889912083014117, -16.444876180490876 ] } },
{ "type": "Feature", "properties": { "OBJECTID": 70, "NAME": "Mozyet", "UNIT": "Vil", "VILCODE": 31001065200.0, "EACODE": 31001065.0, "TACODE": 31001.0, "DISTCODE": 310.0, "TANAME": "TA Ngabu", "DISTRICT": "Chikwawa", "UTMEAST": 701755.875, "UTMNORTH": 8181235.5, "X_COORD": 34.88946, "Y_COORD": -16.42356 }, "geometry": { "type": "Point", "coordinates": [ 34.889912083014117, -16.444876180490876 ] } },
{ "type": "Feature", "properties": { "OBJECTID": 71, "NAME": "Ngabu Sec School", "UNIT": "Vil", "VILCODE": 31021804350.000004, "EACODE": 31021804.0, "TACODE": 31021.0, "DISTCODE": 310.0, "TANAME": "Ngabu Urban", "DISTRICT": "Chikwawa", "UTMEAST": 701215.6875, "UTMNORTH": 8179719.5, "X_COORD": 34.88454, "Y_COORD": -16.43731 }, "geometry": { "type": "Point", "coordinates": [ 34.884986903880694, -16.458618916821607 ] } },
{ "type": "Feature", "properties": { "OBJECTID": 72, "NAME": "Akoma Nkucheza R.House", "UNIT": "Vil", "VILCODE": 31021804164.0, "EACODE": 31021804.0, "TACODE": 31021.0, "DISTCODE": 310.0, "TANAME": "Ngabu Urban", "DISTRICT": "Chikwawa", "UTMEAST": 701215.6875, "UTMNORTH": 8179719.5, "X_COORD": 34.88454, "Y_COORD": -16.43731 }, "geometry": { "type": "Point", "coordinates": [ 34.884986903880694, -16.458618916821607 ] } },
{ "type": "Feature", "properties": { "OBJECTID": 73, "NAME": "Rc Mission", "UNIT": "Vil", "VILCODE": 31021804181.000004, "EACODE": 31021804.0, "TACODE": 31021.0, "DISTCODE": 310.0, "TANAME": "Ngabu Urban", "DISTRICT": "Chikwawa", "UTMEAST": 701215.6875, "UTMNORTH": 8179719.5, "X_COORD": 34.88454, "Y_COORD": -16.43731 }, "geometry": { "type": "Point", "coordinates": [ 34.884986903880694, -16.458618916821607 ] } },
{ "type": "Feature", "properties": { "OBJECTID": 74, "NAME": "Makande Tc", "UNIT": "Vil", "VILCODE": 31021804354.0, "EACODE": 31021804.0, "TACODE": 31021.0, "DISTCODE": 310.0, "TANAME": "Ngabu Urban", "DISTRICT": "Chikwawa", "UTMEAST": 701215.6875, "UTMNORTH": 8179719.5, "X_COORD": 34.88454, "Y_COORD": -16.43731 }, "geometry": { "type": "Point", "coordinates": [ 34.884986903880694, -16.458618916821607 ] } },
{ "type": "Feature", "properties": { "OBJECTID": 75, "NAME": "Malemia", "UNIT": "Vil", "VILCODE": 31021804002.0, "EACODE": 31021804.0, "TACODE": 31021.0, "DISTCODE": 310.0, "TANAME": "Ngabu Urban", "DISTRICT": "Chikwawa", "UTMEAST": 701215.6875, "UTMNORTH": 8179719.5, "X_COORD": 34.88454, "Y_COORD": -16.43731 }, "geometry": { "type": "Point", "coordinates": [ 34.884986903880694, -16.458618916821607 ] } },
{ "type": "Feature", "properties": { "OBJECTID": 76, "NAME": "Nadd", "UNIT": "Vil", "VILCODE": 31021804180.0, "EACODE": 31021804.0, "TACODE": 31021.0, "DISTCODE": 310.0, "TANAME": "Ngabu Urban", "DISTRICT": "Chikwawa", "UTMEAST": 701215.6875, "UTMNORTH": 8179719.5, "X_COORD": 34.88454, "Y_COORD": -16.43731 }, "geometry": { "type": "Point", "coordinates": [ 34.884986903880694, -16.458618916821607 ] } },
{ "type": "Feature", "properties": { "OBJECTID": 77, "NAME": "Anifa Resthouse", "UNIT": "Vil", "VILCODE": 31021804181.999996, "EACODE": 31021804.0, "TACODE": 31021.0, "DISTCODE": 310.0, "TANAME": "Ngabu Urban", "DISTRICT": "Chikwawa", "UTMEAST": 701215.6875, "UTMNORTH": 8179719.5, "X_COORD": 34.88454, "Y_COORD": -16.43731 }, "geometry": { "type": "Point", "coordinates": [ 34.884986903880694, -16.458618916821607 ] } },
{ "type": "Feature", "properties": { "OBJECTID": 78, "NAME": "M.C.D.E", "UNIT": "Vil", "VILCODE": 31021804353.0, "EACODE": 31021804.0, "TACODE": 31021.0, "DISTCODE": 310.0, "TANAME": "Ngabu Urban", "DISTRICT": "Chikwawa", "UTMEAST": 701215.6875, "UTMNORTH": 8179719.5, "X_COORD": 34.88454, "Y_COORD": -16.43731 }, "geometry": { "type": "Point", "coordinates": [ 34.884986903880694, -16.458618916821607 ] } },
{ "type": "Feature", "properties": { "OBJECTID": 79, "NAME": "Sande", "UNIT": "Vil", "VILCODE": 31021804213.0, "EACODE": 31021804.0, "TACODE": 31021.0, "DISTCODE": 310.0, "TANAME": "Ngabu Urban", "DISTRICT": "Chikwawa", "UTMEAST": 701215.6875, "UTMNORTH": 8179719.5, "X_COORD": 34.88454, "Y_COORD": -16.43731 }, "geometry": { "type": "Point", "coordinates": [ 34.884986903880694, -16.458618916821607 ] } },
{ "type": "Feature", "properties": { "OBJECTID": 80, "NAME": "Makande", "UNIT": "Vil", "VILCODE": 31021805354.0, "EACODE": 31021805.0, "TACODE": 31021.0, "DISTCODE": 310.0, "TANAME": "Ngabu Urban", "DISTRICT": "Chikwawa", "UTMEAST": 701889.625, "UTMNORTH": 8179591.75, "X_COORD": 34.89086, "Y_COORD": -16.4384 }, "geometry": { "type": "Point", "coordinates": [ 34.891308219234624, -16.459716278649267 ] } },
{ "type": "Feature", "properties": { "OBJECTID": 81, "NAME": "Ngabu Hosp", "UNIT": "Vil", "VILCODE": 31021805395.0, "EACODE": 31021805.0, "TACODE": 31021.0, "DISTCODE": 310.0, "TANAME": "Ngabu Urban", "DISTRICT": "Chikwawa", "UTMEAST": 701889.625, "UTMNORTH": 8179591.75, "X_COORD": 34.89086, "Y_COORD": -16.4384 }, "geometry": { "type": "Point", "coordinates": [ 34.891308219234624, -16.459716278649267 ] } },
{ "type": "Feature", "properties": { "OBJECTID": 82, "NAME": "Ngabu Trading", "UNIT": "Vil", "VILCODE": 31021805222.0, "EACODE": 31021805.0, "TACODE": 31021.0, "DISTCODE": 310.0, "TANAME": "Ngabu Urban", "DISTRICT": "Chikwawa", "UTMEAST": 701889.625, "UTMNORTH": 8179591.75, "X_COORD": 34.89086, "Y_COORD": -16.4384 }, "geometry": { "type": "Point", "coordinates": [ 34.891308219234624, -16.459716278649267 ] } },
{ "type": "Feature", "properties": { "OBJECTID": 83, "NAME": "Market", "UNIT": "Vil", "VILCODE": 31021805220.999996, "EACODE": 31021805.0, "TACODE": 31021.0, "DISTCODE": 310.0, "TANAME": "Ngabu Urban", "DISTRICT": "Chikwawa", "UTMEAST": 701889.625, "UTMNORTH": 8179591.75, "X_COORD": 34.89086, "Y_COORD": -16.4384 }, "geometry": { "type": "Point", "coordinates": [ 34.891308219234624, -16.459716278649267 ] } },
{ "type": "Feature", "properties": { "OBJECTID": 84, "NAME": "Sande", "UNIT": "Vil", "VILCODE": 31021805213.000004, "EACODE": 31021805.0, "TACODE": 31021.0, "DISTCODE": 310.0, "TANAME": "Ngabu Urban", "DISTRICT": "Chikwawa", "UTMEAST": 701889.625, "UTMNORTH": 8179591.75, "X_COORD": 34.89086, "Y_COORD": -16.4384 }, "geometry": { "type": "Point", "coordinates": [ 34.891308219234624, -16.459716278649267 ] } },
{ "type": "Feature", "properties": { "OBJECTID": 85, "NAME": "Malemia", "UNIT": "Vil", "VILCODE": 31021805001.999996, "EACODE": 31021805.0, "TACODE": 31021.0, "DISTCODE": 310.0, "TANAME": "Ngabu Urban", "DISTRICT": "Chikwawa", "UTMEAST": 701889.625, "UTMNORTH": 8179591.75, "X_COORD": 34.89086, "Y_COORD": -16.4384 }, "geometry": { "type": "Point", "coordinates": [ 34.891308219234624, -16.459716278649267 ] } },
{ "type": "Feature", "properties": { "OBJECTID": 86, "NAME": "Makande", "UNIT": "Vil", "VILCODE": 31021806354.000004, "EACODE": 31021806.0, "TACODE": 31021.0, "DISTCODE": 310.0, "TANAME": "Ngabu Urban", "DISTRICT": "Chikwawa", "UTMEAST": 702758.0625, "UTMNORTH": 8179963.75, "X_COORD": 34.89895, "Y_COORD": -16.43497 }, "geometry": { "type": "Point", "coordinates": [ 34.899406750744376, -16.456281686747886 ] } },
{ "type": "Feature", "properties": { "OBJECTID": 87, "NAME": "Malemia", "UNIT": "Vil", "VILCODE": 31021806002.0, "EACODE": 31021806.0, "TACODE": 31021.0, "DISTCODE": 310.0, "TANAME": "Ngabu Urban", "DISTRICT": "Chikwawa", "UTMEAST": 702758.0625, "UTMNORTH": 8179963.75, "X_COORD": 34.89895, "Y_COORD": -16.43497 }, "geometry": { "type": "Point", "coordinates": [ 34.899406750744376, -16.456281686747886 ] } },
{ "type": "Feature", "properties": { "OBJECTID": 88, "NAME": "Add Residence", "UNIT": "Vil", "VILCODE": 31021806357.0, "EACODE": 31021806.0, "TACODE": 31021.0, "DISTCODE": 310.0, "TANAME": "Ngabu Urban", "DISTRICT": "Chikwawa", "UTMEAST": 702758.0625, "UTMNORTH": 8179963.75, "X_COORD": 34.89895, "Y_COORD": -16.43497 }, "geometry": { "type": "Point", "coordinates": [ 34.899406750744376, -16.456281686747886 ] } },
{ "type": "Feature", "properties": { "OBJECTID": 89, "NAME": "Mphamba", "UNIT": "Vil", "VILCODE": 31021806354.999996, "EACODE": 31021806.0, "TACODE": 31021.0, "DISTCODE": 310.0, "TANAME": "Ngabu Urban", "DISTRICT": "Chikwawa", "UTMEAST": 702758.0625, "UTMNORTH": 8179963.75, "X_COORD": 34.89895, "Y_COORD": -16.43497 }, "geometry": { "type": "Point", "coordinates": [ 34.899406750744376, -16.456281686747886 ] } }
]
}
